id,title,description,latitude,longitude,audioUrl,category,severity,status,factoryName,reportedBy,reportedDate,contactPhone,contactEmail,affectedResidents,evidence,tags
1,บริษัท วสันต์ศิภาพร เทรดดิ้ง จำกัด,Large piles of unsorted waste creating foul odors and attracting pests.,14.0814746,101.3524601,https://nis1j7mrn8.ufs.sh/f/zD359AIVpUoBNwyys2B60XJ9w23sf4YtdonUKrkIiPAWFDgc,noise,high,pending,บริษัท วสันต์ศิภาพร เทรดดิ้ง จำกัด,ชาวบ้านในพื้นที่,2024-06-20,+66-89-123-4567,somchai.j@email.com,45,Audio recording;Photos;Witness statements,night-shift;machinery;residential-area
2,บริษัท วริศรารวมวัสดุเป็นทรัพย์ รีไซเคิล จำกัด,"Recycling activities at the plant are generating significant dust, affecting nearby homes.",14.0054371,101.4607858,https://nis1j7mrn8.ufs.sh/f/zD359AIVpUoBhi7uZ18g5YpIfqtOPSa3buviFoDEdwJW6KsX,air,critical,investigating,บริษัท วริศรารวมวัสดุเป็นทรัพย์ รีไซเคิล จำกัด,ชาวบ้านในพื้นที่,2024-06-18,+66-82-987-6543,niran.patel@email.com,120,Air quality readings;Medical reports;Audio testimony,chemical-odor;health-impact;textile
3,บริษัท สุนันทา รีไซเคิล 2017 จำกัด,Loud machinery from the recycling facility operating late into the night.,14.0090864,101.2764333,https://nis1j7mrn8.ufs.sh/f/zD359AIVpUoB7Fimy6KaF2V7tOW5YZTA64KjPD8iofSeB3x0,water,high,resolved,บริษัท สุนันทา รีไซเคิล 2017 จำกัด,ชาวบ้านในพื้นที่,2024-06-15,+66-85-456-7890,malee.fishing@email.com,75,Water samples;Fish mortality photos;Community audio,discharge;fishing;canal
4,บริษัท โกลเด้น เครน ปราจีนบุรี จำกัด,Discolored water seen running off from the site into a local waterway after rainfall.,13.9356689,101.5852254,https://nis1j7mrn8.ufs.sh/f/zD359AIVpUoB7Fimy6KaF2V7tOW5YZTA64KjPD8iofSeB3x0,waste,critical,pending,บริษัท โกลเด้น เครน ปราจีนบุรี จำกัด,ชาวบ้านในพื้นที่,2024-06-22,+66-87-234-5678,isaan.community@email.com,200,Waste photos;Soil samples;Community testimony,illegal-dumping;health-risk;industrial-waste
5,บริษัท ซันฟลาวเวอร์ รีไซเคิล จำกัด,"Reports of black smoke and acrid smells, suggesting illegal burning of plastic or other waste.",13.2962518,101.1794609,https://nis1j7mrn8.ufs.sh/f/zD359AIVpUoBNwyys2B60XJ9w23sf4YtdonUKrkIiPAWFDgc,air,critical,investigating,บริษัท ซันฟลาวเวอร์ รีไซเคิล จำกัด,ชาวบ้านในพื้นที่,2024-06-19,+66-84-567-8901,hatyai.env@email.com,300,Air monitoring data;Health reports;Satellite images,multiple-sources;district-wide;air-quality